id,type,latitude,longitude,Size,Capacity,Active,Locations,Products
node_1,DC,43.78,-79.63,100,50,True,loc_CA_ON,prd_def456 prd_abc123
node_2,DC, 39.82,-86.18,80,40,True,loc_US_IN,prd_def456 prd_abc123
node_3,Store,42.89,-85.68,500,150,True,loc_US_MI,prd_def456 prd_abc123
node_4,Store,28.49,-81.56,1000,250,True,loc_US_FL,prd_def456 prd_abc123
node_5,Store,42.361176,-71.084707,1000,250,True,loc_US_MA,prd_def456 prd_abc123
